time,x,y,z,w0,w1,w2,w3,vx,vy,vz,roll,pitch,yaw
0,0.0,0.0,0,0.0,0.0,0.0,1.0,0.0,0.0,0.0,0,0,0.0
0,0.0,0.0,0,0.0,0.0,0.0,1.0,0.0,0.0,0.0,0,0,0.0
0,0.0,0.0,0,0.0,0.0,0.0,1.0,0.0,0.0,0.0,0,0,0.0
0,0.0,0.0,0,0.0,0.0,0.0,1.0,0.0,0.0,0.0,0,0,0.0
0,0.0,0.0,0,0.0,0.0,0.0,1.0,0.0,0.0,0.0,0,0,0.0
0,0.0,0.0,0,0.0,0.0,0.0,1.0,0.0,0.0,0.0,0,0,0.0
0,0.0,0.0,0,0.0,0.0,0.0,1.0,0.0,0.0,0.0,0,0,0.0
0,0.0,0.0,0,0.0,0.0,0.0,1.0,0.0,0.0,0.0,0,0,0.0
0,0.0,0.0,0,0.0,0.0,0.0,1.0,0.0,0.0,0.0,0,0,0.0
0,0.0,0.0,0,0.0,0.0,0.0,1.0,0.0,0.0,0.0,0,0,0.0
0,0.0,0.0,0,0.0,0.0,0.0,1.0,0.0,0.0,0.0,0,0,0.0
0,0.0,0.0,0,0.0,0.0,0.0,1.0,0.0,0.0,0.0,0,0,0.0
0,0.0,0.0,0,0.0,0.0,0.0,1.0,0.0,0.0,0.0,0,0,0.0
0,0.0,0.0,0,0.0,0.0,0.0,1.0,0.0,0.0,0.0,0,0,0.0
0,0.0,0.0,0,0.0,0.0,0.0,1.0,0.0,0.0,0.0,0,0,0.0
0,0.0,0.0,0,0.0,0.0,0.0,1.0,0.0,0.0,0.0,0,0,0.0
0,0.0,0.0,0,0.0,0.0,0.0,1.0,0.0,0.0,0.0,0,0,0.0
0,0.0,0.0,0,0.0,0.0,0.0,1.0,0.0,0.0,0.0,0,0,0.0
0,0.0,0.0,0,0.0,0.0,0.0,1.0,0.0,0.0,0.0,0,0,0.0
0,0.0,0.0,0,0.0,0.0,0.0,1.0,0.0,0.0,0.0,0,0,0.0
0,0.0,0.0,0,0.0,0.0,0.0,1.0,0.0,0.0,0.0,0,0,0.0
0,0.0,0.0,0,0.0,0.0,0.0,1.0,0.0,0.0,0.0,0,0,0.0
0,0.0,0.0,0,0.0,0.0,0.0,1.0,0.0,0.0,0.0,0,0,0.0
0,0.0,0.0,0,0.0,0.0,0.0,1.0,0.0,0.0,0.0,0,0,0.0
0,0.0,0.0,0,0.0,0.0,0.0,1.0,0.0,0.0,0.0,0,0,0.0
0,0.0,0.0,0,0.0,0.0,0.0,1.0,0.0,0.0,0.0,0,0,0.0
0,0.0,0.0,0,0.0,0.0,0.0,1.0,0.0,0.0,0.0,0,0,0.0
0,0.0,0.0,0,0.0,0.0,0.0,1.0,0.0,0.0,0.0,0,0,0.0
0,0.0,0.0,0,0.0,0.0,0.0,1.0,0.0,0.0,0.0,0,0,0.0
0,0.0,0.0,0,0.0,0.0,0.0,1.0,0.0,0.0,0.0,0,0,0.0
0,0.0,0.0,0,0.0,0.0,0.0,1.0,0.0,0.0,0.0,0,0,0.0
0,0.0,0.0,0,0.0,0.0,0.0,1.0,0.0,0.0,0.0,0,0,0.0
0,0.0,0.0,0,0.0,0.0,0.0,1.0,0.0,0.0,0.0,0,0,0.0
0,0.0,0.0,0,0.0,0.0,0.0,1.0,0.0,0.0,0.0,0,0,0.0
0,0.0,0.0,0,0.0,0.0,0.0,1.0,0.0,0.0,0.0,0,0,0.0
0,0.0,0.0,0,0.0,0.0,0.0,1.0,0.0,0.0,0.0,0,0,0.0
0,0.0,0.0,0,0.0,0.0,0.0,1.0,0.0,0.0,0.0,0,0,0.0
0,0.0,0.0,0,0.0,0.0,0.0,1.0,0.0,0.0,0.0,0,0,0.0
0,0.0,0.0,0,0.0,0.0,0.0,1.0,0.0,0.0,0.0,0,0,0.0
0,0.0,0.0,0,0.0,0.0,0.0,1.0,0.0,0.0,0.0,0,0,0.0
0,0.0005,0.0,0,0.0,0.0,0.0,1.0,0.0,0.0,0.0,0,0,0.0
0,0.0015,0.0,0,0.0,0.0,0.0,1.0,0.0,0.0,0.0,0,0,0.0
0,0.0025,0.0,0,0.0,0.0,0.0,1.0,0.0,0.0,0.0,0,0,0.0
0,0.0035,0.0,0,0.0,0.0,0.0,1.0,0.0,0.0,0.0,0,0,0.0
0,0.0045000000000000005,0.0,0,0.0,0.0,0.0,1.0,0.0,0.0,0.0,0,0,0.0
0,0.007000000000000001,0.0,0,0.0,0.0,0.0,1.0,0.0,0.0,0.0,0,0,0.0
0,0.011000000000000001,0.0,0,0.0,0.0,0.0,1.0,0.0,0.0,0.0,0,0,0.0
0,0.0155,0.0,0,0.0,0.0,0.0,1.0,0.0,0.0,0.0,0,0,0.0
0,0.0205,0.0,0,0.0,0.0,0.0,1.0,0.0,0.0,0.0,0,0,0.0
0,0.026000000000000002,0.0,0,0.0,0.0,0.0,1.0,0.0,0.0,0.0,0,0,0.0
0,0.032,0.0,0,0.0,0.0,0.0,1.0,0.0,0.0,0.0,0,0,0.0
0,0.0385,0.0,0,0.0,0.0,0.0,1.0,0.0,0.0,0.0,0,0,0.0
0,0.0455,0.0,0,0.0,0.0,0.0,1.0,0.0,0.0,0.0,0,0,0.0
0,0.053,0.0,0,0.0,0.0,0.0,1.0,0.0,0.0,0.0,0,0,0.0
0,0.061,0.0,0,0.0,0.0,-0.0024999973958341475,0.9999968750016276,0.0,0.0,0.0,0,0,0.0
0,0.06899990000020834,-3.999983333354168e-05,0,0.0,0.0,-0.007499929687697755,0.9999718751318357,0.0,0.0,0.0,0,0,0.0
0,0.07699900001708321,-0.00015999533338416645,0,0.0,0.0,-0.012499674481709792,0.9999218760172474,0.0,0.0,0.0,0,0,0.0
0,0.08499650014728882,-0.00035997450070186516,0,0.0,0.0,-0.017499106784510807,0.9998468789078377,0.0,0.0,0.0,0,0,0.0
0,0.09299160064747673,-0.0006399173375365547,0,0.0,0.0,-0.022498101610553625,0.9997468856785308,0.0,0.0,0.0,0,0,0.0
0,0.10098350201425947,-0.0009997958498378368,0,0.0,0.0,-0.03249427894798476,0.9994719214843659,0.0,0.0,0.0,0,0,0.0
0,0.10896660796362988,-0.0015194297605160977,0,0.0,0.0,-0.049979169270678345,0.9987502603949663,0.0,0.0,0.0,0,0,0.0
0,0.11692664128585409,-0.0023180970936907234,0,0.0,0.0,-0.07492970727274237,0.9971888181122075,0.0,0.0,0.0,0,0,0.0
0,0.12483680990934243,-0.0035136021534795175,0,0.0,0.0,-0.10977830083717484,0.9939560979566968,0.0,0.0,0.0,0,0,0.0
0,0.13264398950398726,-0.005259439138126473,0,0.0,0.0,-0.15190959059959475,0.9883943930860107,0.0,0.0,0.0,0,0,0.0
0,0.14027476512452908,-0.007661784539800567,0,0.0,0.0,-0.20111887384607313,0.9795668423251612,0.0,0.0,0.0,0,0,0.0
0,0.14762758430185527,-0.010813934622766811,0,0.0,0.0,-0.2546637760871525,0.9670296588776544,0.0,0.0,0.0,0,0,0.0
0,0.1545899260802398,-0.014754213415055683,0,0.0,0.0,-0.30981647122760303,0.9507963789140532,0.0,0.0,0.0,0,0,0.0
0,0.1545899260802398,-0.014754213415055683,0,0.0,0.0,-0.3098164712276031,0.9507963789140532,0.0,0.0,0.0,0,0,0.0
0,0.1545899260802398,-0.014754213415055683,0,0.0,0.0,-0.30981647122760314,0.9507963789140531,0.0,0.0,0.0,0,0,0.0
0,0.1545899260802398,-0.014754213415055683,0,0.0,0.0,-0.30981647122760314,0.9507963789140531,0.0,0.0,0.0,0,0,0.0
0,0.1545899260802398,-0.014754213415055683,0,0.0,0.0,-0.30981647122760314,0.9507963789140531,0.0,0.0,0.0,0,0,0.0
0,0.1545899260802398,-0.014754213415055683,0,0.0,0.0,-0.30981647122760314,0.9507963789140531,0.0,0.0,0.0,0,0,0.0
0,0.1545899260802398,-0.014754213415055683,0,0.0,0.0,-0.30981647122760314,0.9507963789140531,0.0,0.0,0.0,0,0,0.0
0,0.1545899260802398,-0.014754213415055683,0,0.0,0.0,-0.30981647122760314,0.9507963789140531,0.0,0.0,0.0,0,0,0.0
0,0.1545899260802398,-0.014754213415055683,0,0.0,0.0,-0.30981647122760314,0.9507963789140531,0.0,0.0,0.0,0,0,0.0
0,0.1545899260802398,-0.014754213415055683,0,0.0,0.0,-0.30981647122760314,0.9507963789140531,0.0,0.0,0.0,0,0,0.0
0,0.1545899260802398,-0.014754213415055683,0,0.0,0.0,-0.30981647122760314,0.9507963789140531,0.0,0.0,0.0,0,0,0.0
0,0.1545899260802398,-0.014754213415055683,0,0.0,0.0,-0.30981647122760314,0.9507963789140531,0.0,0.0,0.0,0,0,0.0
0,0.1545899260802398,-0.014754213415055683,0,0.0,0.0,-0.30981647122760314,0.9507963789140531,0.0,0.0,0.0,0,0,0.0
0,0.1545899260802398,-0.014754213415055683,0,0.0,0.0,-0.30981647122760314,0.9507963789140531,0.0,0.0,0.0,0,0,0.0
0,0.1545899260802398,-0.014754213415055683,0,0.0,0.0,-0.30981647122760314,0.9507963789140531,0.0,0.0,0.0,0,0,0.0
0,0.15499393983439588,-0.015048785794026819,0,0.0,0.0,-0.30981647122760314,0.9507963789140531,0.0,0.0,0.0,0,0,0.0
0,0.15580196734270804,-0.01563793055196909,0,0.0,0.0,-0.30981647122760314,0.9507963789140531,0.0,0.0,0.0,0,0,0.0
0,0.1566099948510202,-0.01622707530991136,0,0.0,0.0,-0.30981647122760314,0.9507963789140531,0.0,0.0,0.0,0,0,0.0
0,0.15741802235933236,-0.016816220067853632,0,0.0,0.0,-0.30981647122760314,0.9507963789140531,0.0,0.0,0.0,0,0,0.0
0,0.15822604986764452,-0.017405364825795903,0,0.0,0.0,-0.30981647122760314,0.9507963789140531,0.0,0.0,0.0,0,0,0.0
0,0.15943809113011276,-0.018289081962709307,0,0.0,0.0,-0.30981647122760314,0.9507963789140531,0.0,0.0,0.0,0,0,0.0
0,0.1618621736550492,-0.020056516236536117,0,0.0,0.0,-0.30981647122760314,0.9507963789140531,0.0,0.0,0.0,0,0,0.0
0,0.16590231119660998,-0.023002240026247466,0,0.0,0.0,-0.30981647122760314,0.9507963789140531,0.0,0.0,0.0,0,0,0.0
0,0.17115449000063895,-0.026831680952872222,0,0.0,0.0,-0.30981647122760314,0.9507963789140531,0.0,0.0,0.0,0,0,0.0
0,0.17761871006713617,-0.031544839016410385,0,0.0,0.0,-0.30981647122760314,0.9507963789140531,0.0,0.0,0.0,0,0,0.0
0,0.1852949713961016,-0.03714171421686195,0,0.0,0.0,-0.30981647122760314,0.9507963789140531,0.0,0.0,0.0,0,0,0.0
0,0.19458728774169134,-0.04391687893319806,0,0.0,0.0,-0.30981647122760314,0.9507963789140531,0.0,0.0,0.0,0,0,0.0
0,0.20509164534974933,-0.05157576078644757,0,0.0,0.0,-0.30981647122760314,0.9507963789140531,0.0,0.0,0.0,0,0,0.0
0,0.21680804422027553,-0.060118359776610494,0,0.0,0.0,-0.30981647122760314,0.9507963789140531,0.0,0.0,0.0,0,0,0.0
0,0.23014049810742604,-0.06983924828265796,0,0.0,0.0,-0.30981647122760314,0.9507963789140531,0.0,0.0,0.0,0,0,0.0
0,0.24468499325704476,-0.08044385392561883,0,0.0,0.0,-0.30981647122760314,0.9507963789140531,0.0,0.0,0.0,0,0,0.0
0,0.2604415296691317,-0.0919321767054931,0,0.0,0.0,-0.30981647122760314,0.9507963789140531,0.0,0.0,0.0,0,0,0.0
0,0.2774101073436869,-0.10430421662228077,0,0.0,0.0,-0.30981647122760314,0.9507963789140531,0.0,0.0,0.0,0,0,0.0
0,0.2951867125265542,-0.11726540129701071,0,0.0,0.0,-0.30981647122760314,0.9507963789140531,0.0,0.0,0.0,0,0,0.0
0,0.31296331770942154,-0.13022658597174067,0,0.0,0.0,-0.30981647122760314,0.9507963789140531,0.0,0.0,0.0,0,0,0.0
0,0.3307399228922889,-0.14318777064647062,0,0.0,0.0,-0.30981647122760314,0.9507963789140531,0.0,0.0,0.0,0,0,0.0
0,0.3485165280751562,-0.15614895532120057,0,0.0,0.0,-0.30981647122760314,0.9507963789140531,0.0,0.0,0.0,0,0,0.0
0,0.36629313325802354,-0.16911013999593053,0,0.0,0.0,-0.30981647122760314,0.9507963789140531,0.0,0.0,0.0,0,0,0.0
0,0.3840697384408909,-0.18207132467066048,0,0.0,0.0,-0.30981647122760314,0.9507963789140531,0.0,0.0,0.0,0,0,0.0
0,0.4018463436237582,-0.19503250934539043,0,0.0,0.0,-0.30981647122760314,0.9507963789140531,0.0,0.0,0.0,0,0,0.0
0,0.41962294880662554,-0.20799369402012038,0,0.0,0.0,-0.30981647122760314,0.9507963789140531,0.0,0.0,0.0,0,0,0.0
0,0.4373995539894929,-0.22095487869485034,0,0.0,0.0,-0.30981647122760314,0.9507963789140531,0.0,0.0,0.0,0,0,0.0
0,0.4551761591723602,-0.2339160633695803,0,0.0,0.0,-0.30981647122760314,0.9507963789140531,0.0,0.0,0.0,0,0,0.0
0,0.47295276435522754,-0.24687724804431024,0,0.0,0.0,-0.30981647122760314,0.9507963789140531,0.0,0.0,0.0,0,0,0.0
0,0.4907293695380949,-0.25983843271904017,0,0.0,0.0,-0.30981647122760314,0.9507963789140531,0.0,0.0,0.0,0,0,0.0
0,0.5085059747209623,-0.2727996173937701,0,0.0,0.0,-0.30981647122760314,0.9507963789140531,0.0,0.0,0.0,0,0,0.0
0,0.5262825799038297,-0.2857608020685001,0,0.0,0.0,-0.30981647122760314,0.9507963789140531,0.0,0.0,0.0,0,0,0.0
0,0.544059185086697,-0.29872198674323003,0,0.0,0.0,-0.30981647122760314,0.9507963789140531,0.0,0.0,0.0,0,0,0.0
0,0.5618357902695644,-0.31168317141796,0,0.0,0.0,-0.30981647122760314,0.9507963789140531,0.0,0.0,0.0,0,0,0.0
0,0.5796123954524318,-0.32464435609268993,0,0.0,0.0,-0.30981647122760314,0.9507963789140531,0.0,0.0,0.0,0,0,0.0
0,0.5973890006352992,-0.3376055407674199,0,0.0,0.0,-0.30981647122760314,0.9507963789140531,0.0,0.0,0.0,0,0,0.0
0,0.6151656058181666,-0.35056672544214984,0,0.0,0.0,-0.30981647122760314,0.9507963789140531,0.0,0.0,0.0,0,0,0.0
0,0.632942211001034,-0.3635279101168798,0,0.0,0.0,-0.30981647122760314,0.9507963789140531,0.0,0.0,0.0,0,0,0.0
0,0.6507188161839014,-0.37648909479160975,0,0.0,0.0,-0.30981647122760314,0.9507963789140531,0.0,0.0,0.0,0,0,0.0
0,0.6684954213667688,-0.3894502794663397,0,0.0,0.0,-0.30981647122760314,0.9507963789140531,0.0,0.0,0.0,0,0,0.0
0,0.6862720265496361,-0.40241146414106965,0,0.0,0.0,-0.30981647122760314,0.9507963789140531,0.0,0.0,0.0,0,0,0.0
0,0.7040486317325035,-0.4153726488157996,0,0.0,0.0,-0.30981647122760314,0.9507963789140531,0.0,0.0,0.0,0,0,0.0
0,0.7218252369153709,-0.42833383349052956,0,0.0,0.0,-0.30981647122760314,0.9507963789140531,0.0,0.0,0.0,0,0,0.0
0,0.7396018420982383,-0.4412950181652595,0,0.0,0.0,-0.30981647122760314,0.9507963789140531,0.0,0.0,0.0,0,0,0.0
0,0.7573784472811057,-0.45425620283998946,0,0.0,0.0,-0.30981647122760314,0.9507963789140531,0.0,0.0,0.0,0,0,0.0
0,0.7751550524639731,-0.4672173875147194,0,0.0,0.0,-0.30981647122760314,0.9507963789140531,0.0,0.0,0.0,0,0,0.0
0,0.7929316576468405,-0.48017857218944937,0,0.0,0.0,-0.30981647122760314,0.9507963789140531,0.0,0.0,0.0,0,0,0.0
0,0.8107082628297079,-0.4931397568641793,0,0.0,0.0,-0.30981647122760314,0.9507963789140531,0.0,0.0,0.0,0,0,0.0
0,0.8284848680125753,-0.5061009415389093,0,0.0,0.0,-0.30981647122760314,0.9507963789140531,0.0,0.0,0.0,0,0,0.0
0,0.8462614731954426,-0.5190621262136392,0,0.0,0.0,-0.30981647122760314,0.9507963789140531,0.0,0.0,0.0,0,0,0.0
0,0.86403807837831,-0.5320233108883692,0,0.0,0.0,-0.30981647122760314,0.9507963789140531,0.0,0.0,0.0,0,0,0.0
0,0.8818146835611774,-0.5449844955630991,0,0.0,0.0,-0.30981647122760314,0.9507963789140531,0.0,0.0,0.0,0,0,0.0
0,0.8995912887440448,-0.5579456802378291,0,0.0,0.0,-0.30981647122760314,0.9507963789140531,0.0,0.0,0.0,0,0,0.0
0,0.9173678939269122,-0.570906864912559,0,0.0,0.0,-0.30981647122760314,0.9507963789140531,0.0,0.0,0.0,0,0,0.0
0,0.9351444991097796,-0.583868049587289,0,0.0,0.0,-0.30981647122760314,0.9507963789140531,0.0,0.0,0.0,0,0,0.0
0,0.952921104292647,-0.596829234262019,0,0.0,0.0,-0.30981647122760314,0.9507963789140531,0.0,0.0,0.0,0,0,0.0
0,0.9706977094755144,-0.6097904189367489,0,0.0,0.0,-0.30981647122760314,0.9507963789140531,0.0,0.0,0.0,0,0,0.0
0,0.9884743146583818,-0.6227516036114789,0,0.0,0.0,-0.30981647122760314,0.9507963789140531,0.0,0.0,0.0,0,0,0.0
0,1.006250919841249,-0.6357127882862088,0,0.0,0.0,-0.30981647122760314,0.9507963789140531,0.0,0.0,0.0,0,0,0.0
0,1.0240275250241164,-0.6486739729609388,0,0.0,0.0,-0.30981647122760314,0.9507963789140531,0.0,0.0,0.0,0,0,0.0
0,1.0418041302069838,-0.6616351576356687,0,0.0,0.0,-0.30981647122760314,0.9507963789140531,0.0,0.0,0.0,0,0,0.0
0,1.0595807353898512,-0.6745963423103987,0,0.0,0.0,-0.30981647122760314,0.9507963789140531,0.0,0.0,0.0,0,0,0.0
0,1.0773573405727186,-0.6875575269851286,0,0.0,0.0,-0.30981647122760314,0.9507963789140531,0.0,0.0,0.0,0,0,0.0
0,1.095133945755586,-0.7005187116598586,0,0.0,0.0,-0.30981647122760314,0.9507963789140531,0.0,0.0,0.0,0,0,0.0
0,1.1129105509384534,-0.7134798963345885,0,0.0,0.0,-0.30981647122760314,0.9507963789140531,0.0,0.0,0.0,0,0,0.0
0,1.1306871561213208,-0.7264410810093185,0,0.0,0.0,-0.30981647122760314,0.9507963789140531,0.0,0.0,0.0,0,0,0.0
0,1.1484637613041881,-0.7394022656840484,0,0.0,0.0,-0.30981647122760314,0.9507963789140531,0.0,0.0,0.0,0,0,0.0
0,1.1662403664870555,-0.7523634503587784,0,0.0,0.0,-0.30981647122760314,0.9507963789140531,0.0,0.0,0.0,0,0,0.0
0,1.184016971669923,-0.7653246350335083,0,0.0,0.0,-0.30981647122760314,0.9507963789140531,0.0,0.0,0.0,0,0,0.0
0,1.2017935768527903,-0.7782858197082383,0,0.0,0.0,-0.30981647122760314,0.9507963789140531,0.0,0.0,0.0,0,0,0.0
0,1.2195701820356577,-0.7912470043829682,0,0.0,0.0,-0.30981647122760314,0.9507963789140531,0.0,0.0,0.0,0,0,0.0
0,1.237346787218525,-0.8042081890576982,0,0.0,0.0,-0.30981647122760314,0.9507963789140531,0.0,0.0,0.0,0,0,0.0
0,1.2551233924013925,-0.8171693737324282,0,0.0,0.0,-0.30981647122760314,0.9507963789140531,0.0,0.0,0.0,0,0,0.0
0,1.2728999975842599,-0.8301305584071581,0,0.0,0.0,-0.30981647122760314,0.9507963789140531,0.0,0.0,0.0,0,0,0.0
0,1.2906766027671273,-0.8430917430818881,0,0.0,0.0,-0.30981647122760314,0.9507963789140531,0.0,0.0,0.0,0,0,0.0
0,1.3084532079499946,-0.856052927756618,0,0.0,0.0,-0.30981647122760314,0.9507963789140531,0.0,0.0,0.0,0,0,0.0
0,1.326229813132862,-0.869014112431348,0,0.0,0.0,-0.30981647122760314,0.9507963789140531,0.0,0.0,0.0,0,0,0.0
0,1.3440064183157294,-0.8819752971060779,0,0.0,0.0,-0.30981647122760314,0.9507963789140531,0.0,0.0,0.0,0,0,0.0
0,1.3617830234985968,-0.8949364817808079,0,0.0,0.0,-0.30981647122760314,0.9507963789140531,0.0,0.0,0.0,0,0,0.0
0,1.3795596286814642,-0.9078976664555378,0,0.0,0.0,-0.30981647122760314,0.9507963789140531,0.0,0.0,0.0,0,0,0.0
0,1.3973362338643316,-0.9208588511302678,0,0.0,0.0,-0.30981647122760314,0.9507963789140531,0.0,0.0,0.0,0,0,0.0
0,1.415112839047199,-0.9338200358049977,0,0.0,0.0,-0.30981647122760314,0.9507963789140531,0.0,0.0,0.0,0,0,0.0
0,1.4328894442300664,-0.9467812204797277,0,0.0,0.0,-0.30981647122760314,0.9507963789140531,0.0,0.0,0.0,0,0,0.0
0,1.4506660494129338,-0.9597424051544576,0,0.0,0.0,-0.30981647122760314,0.9507963789140531,0.0,0.0,0.0,0,0,0.0
0,1.4684426545958011,-0.9727035898291876,0,0.0,0.0,-0.30981647122760314,0.9507963789140531,0.0,0.0,0.0,0,0,0.0
0,1.4862192597786685,-0.9856647745039175,0,0.0,0.0,-0.30981647122760314,0.9507963789140531,0.0,0.0,0.0,0,0,0.0
0,1.503995864961536,-0.9986259591786475,0,0.0,0.0,-0.30981647122760314,0.9507963789140531,0.0,0.0,0.0,0,0,0.0
0,1.5217724701444033,-1.0115871438533774,0,0.0,0.0,-0.30981647122760314,0.9507963789140531,0.0,0.0,0.0,0,0,0.0
0,1.5395490753272707,-1.0245483285281074,0,0.0,0.0,-0.30981647122760314,0.9507963789140531,0.0,0.0,0.0,0,0,0.0
0,1.557325680510138,-1.0375095132028374,0,0.0,0.0,-0.30981647122760314,0.9507963789140531,0.0,0.0,0.0,0,0,0.0
0,1.5751022856930055,-1.0504706978775673,0,0.0,0.0,-0.30981647122760314,0.9507963789140531,0.0,0.0,0.0,0,0,0.0
0,1.5928788908758729,-1.0634318825522973,0,0.0,0.0,-0.30981647122760314,0.9507963789140531,0.0,0.0,0.0,0,0,0.0
0,1.6106554960587403,-1.0763930672270272,0,0.0,0.0,-0.30981647122760314,0.9507963789140531,0.0,0.0,0.0,0,0,0.0
0,1.6284321012416076,-1.0893542519017572,0,0.0,0.0,-0.30981647122760314,0.9507963789140531,0.0,0.0,0.0,0,0,0.0
0,1.646208706424475,-1.1023154365764871,0,0.0,0.0,-0.30981647122760314,0.9507963789140531,0.0,0.0,0.0,0,0,0.0
0,1.6639853116073424,-1.115276621251217,0,0.0,0.0,-0.30981647122760314,0.9507963789140531,0.0,0.0,0.0,0,0,0.0
0,1.6817619167902098,-1.128237805925947,0,0.0,0.0,-0.30981647122760314,0.9507963789140531,0.0,0.0,0.0,0,0,0.0
0,1.6995385219730772,-1.141198990600677,0,0.0,0.0,-0.30981647122760314,0.9507963789140531,0.0,0.0,0.0,0,0,0.0
0,1.7173151271559446,-1.154160175275407,0,0.0,0.0,-0.30981647122760314,0.9507963789140531,0.0,0.0,0.0,0,0,0.0
0,1.7173151271559446,-1.154160175275407,0,0.0,0.0,-0.30981647122760314,0.9507963789140531,0.0,0.0,0.0,0,0,0.0
0,1.7173151271559446,-1.154160175275407,0,0.0,0.0,-0.30981647122760314,0.9507963789140531,0.0,0.0,0.0,0,0,0.0
0,1.7173151271559446,-1.154160175275407,0,0.0,0.0,-0.30981647122760314,0.9507963789140531,0.0,0.0,0.0,0,0,0.0
0,1.7173151271559446,-1.154160175275407,0,0.0,0.0,-0.30981647122760314,0.9507963789140531,0.0,0.0,0.0,0,0,0.0
0,1.7173151271559446,-1.154160175275407,0,0.0,0.0,-0.30981647122760314,0.9507963789140531,0.0,0.0,0.0,0,0,0.0
0,1.7173151271559446,-1.154160175275407,0,0.0,0.0,-0.30981647122760314,0.9507963789140531,0.0,0.0,0.0,0,0,0.0
0,1.7173151271559446,-1.154160175275407,0,0.0,0.0,-0.30981647122760314,0.9507963789140531,0.0,0.0,0.0,0,0,0.0
0,1.7173151271559446,-1.154160175275407,0,0.0,0.0,-0.30981647122760314,0.9507963789140531,0.0,0.0,0.0,0,0,0.0
0,1.7173151271559446,-1.154160175275407,0,0.0,0.0,-0.30981647122760314,0.9507963789140531,0.0,0.0,0.0,0,0,0.0
0,1.7173151271559446,-1.154160175275407,0,0.0,0.0,-0.30981647122760314,0.9507963789140531,0.0,0.0,0.0,0,0,0.0
0,1.7173151271559446,-1.154160175275407,0,0.0,0.0,-0.30981647122760314,0.9507963789140531,0.0,0.0,0.0,0,0,0.0
0,1.7173151271559446,-1.154160175275407,0,0.0,0.0,-0.30981647122760314,0.9507963789140531,0.0,0.0,0.0,0,0,0.0
0,1.7173151271559446,-1.154160175275407,0,0.0,0.0,-0.30981647122760314,0.9507963789140531,0.0,0.0,0.0,0,0,0.0
0,1.7173151271559446,-1.154160175275407,0,0.0,0.0,-0.30981647122760314,0.9507963789140531,0.0,0.0,0.0,0,0,0.0
0,1.7173151271559446,-1.154160175275407,0,0.0,0.0,-0.30981647122760314,0.9507963789140531,0.0,0.0,0.0,0,0,0.0
0,1.7173151271559446,-1.154160175275407,0,0.0,0.0,-0.30981647122760314,0.9507963789140531,0.0,0.0,0.0,0,0,0.0
0,1.7173151271559446,-1.154160175275407,0,0.0,0.0,-0.30981647122760314,0.9507963789140531,0.0,0.0,0.0,0,0,0.0
0,1.7173151271559446,-1.154160175275407,0,0.0,0.0,-0.30981647122760314,0.9507963789140531,0.0,0.0,0.0,0,0,0.0
0,1.7173151271559446,-1.154160175275407,0,0.0,0.0,-0.30981647122760314,0.9507963789140531,0.0,0.0,0.0,0,0,0.0
0,1.7173151271559446,-1.154160175275407,0,0.0,0.0,-0.30981647122760314,0.9507963789140531,0.0,0.0,0.0,0,0,0.0
0,1.7173151271559446,-1.154160175275407,0,0.0,0.0,-0.30981647122760314,0.9507963789140531,0.0,0.0,0.0,0,0,0.0
0,1.7173151271559446,-1.154160175275407,0,0.0,0.0,-0.30981647122760314,0.9507963789140531,0.0,0.0,0.0,0,0,0.0
0,1.7173151271559446,-1.154160175275407,0,0.0,0.0,-0.30981647122760314,0.9507963789140531,0.0,0.0,0.0,0,0,0.0
0,1.7173151271559446,-1.154160175275407,0,0.0,0.0,-0.30981647122760314,0.9507963789140531,0.0,0.0,0.0,0,0,0.0
0,1.7173151271559446,-1.154160175275407,0,0.0,0.0,-0.30981647122760314,0.9507963789140531,0.0,0.0,0.0,0,0,0.0
0,1.7173151271559446,-1.154160175275407,0,0.0,0.0,-0.30981647122760314,0.9507963789140531,0.0,0.0,0.0,0,0,0.0
0,1.7173151271559446,-1.154160175275407,0,0.0,0.0,-0.30981647122760314,0.9507963789140531,0.0,0.0,0.0,0,0,0.0
0,1.7173151271559446,-1.154160175275407,0,0.0,0.0,-0.30981647122760314,0.9507963789140531,0.0,0.0,0.0,0,0,0.0
0,1.7173151271559446,-1.154160175275407,0,0.0,0.0,-0.30981647122760314,0.9507963789140531,0.0,0.0,0.0,0,0,0.0
0,1.7173151271559446,-1.154160175275407,0,0.0,0.0,-0.30981647122760314,0.9507963789140531,0.0,0.0,0.0,0,0,0.0
0,1.7173151271559446,-1.154160175275407,0,0.0,0.0,-0.30981647122760314,0.9507963789140531,0.0,0.0,0.0,0,0,0.0
0,1.7173151271559446,-1.154160175275407,0,0.0,0.0,-0.30981647122760314,0.9507963789140531,0.0,0.0,0.0,0,0,0.0
0,1.7173151271559446,-1.154160175275407,0,0.0,0.0,-0.30981647122760314,0.9507963789140531,0.0,0.0,0.0,0,0,0.0
0,1.7173151271559446,-1.154160175275407,0,0.0,0.0,-0.30981647122760314,0.9507963789140531,0.0,0.0,0.0,0,0,0.0
0,1.7173151271559446,-1.154160175275407,0,0.0,0.0,-0.30981647122760314,0.9507963789140531,0.0,0.0,0.0,0,0,0.0
0,1.7173151271559446,-1.154160175275407,0,0.0,0.0,-0.30981647122760314,0.9507963789140531,0.0,0.0,0.0,0,0,0.0
0,1.7173151271559446,-1.154160175275407,0,0.0,0.0,-0.30981647122760314,0.9507963789140531,0.0,0.0,0.0,0,0,0.0
0,1.7173151271559446,-1.154160175275407,0,0.0,0.0,-0.30981647122760314,0.9507963789140531,0.0,0.0,0.0,0,0,0.0
0,1.7173151271559446,-1.154160175275407,0,0.0,0.0,-0.30981647122760314,0.9507963789140531,0.0,0.0,0.0,0,0,0.0
0,1.7173151271559446,-1.154160175275407,0,0.0,0.0,-0.30981647122760314,0.9507963789140531,0.0,0.0,0.0,0,0,0.0
0,1.7173151271559446,-1.154160175275407,0,0.0,0.0,-0.30981647122760314,0.9507963789140531,0.0,0.0,0.0,0,0,0.0
0,1.7173151271559446,-1.154160175275407,0,0.0,0.0,-0.30981647122760314,0.9507963789140531,0.0,0.0,0.0,0,0,0.0
0,1.7356310542805435,-1.1675145875216562,0,0.0,0.0,-0.31974337320658575,0.947504182202102,0.0,0.0,0.0,0,0,0.0
0,1.762932002067296,-1.1883084298505224,0,0.0,0.0,-0.33613003862161056,0.9418155855241697,0.0,0.0,0.0,0,0,0.0
0,1.7958959632535147,-1.215272348145044,0,0.0,0.0,-0.3580340310570432,0.9337085372882933,0.0,0.0,0.0,0,0,0.0
0,1.8176252017998946,-1.2348093164769232,0,0.0,0.0,-0.3729040547343017,0.9278699078872624,0.0,0.0,0.0,0,0,0.0
0,1.8459841139210393,-1.2619947123271895,0,0.0,0.0,-0.39339366272498333,0.9193701246656986,0.0,0.0,0.0,0,0,0.0
0,1.8724434814664979,-1.2897135045913888,0,0.0,0.0,-0.412940901803829,0.9107578227044995,0.0,0.0,0.0,0,0,0.0
0,1.8810396133914347,-1.2995256748426722,0,0.0,0.0,-0.4189751622291473,0.9079976946199035,0.0,0.0,0.0,0,0,0.0
0,1.9013352103564896,-1.3233222216350875,0,0.0,0.0,-0.42167038216124064,0.9067491873765277,0.0,0.0,0.0,0,0,0.0
0,1.9291555993869405,-1.3563368112365044,0,0.0,0.0,-0.4309573315038698,0.9023723058821473,0.0,0.0,0.0,0,0,0.0
0,1.9177414633486447,-1.3422129915267922,0,0.0,0.0,-0.4237189812048222,0.9057936988998916,0.0,0.0,0.0,0,0,0.0
0,1.9091006833226594,-1.3318643505554573,0,0.0,0.0,-0.4163231545153037,0.9092167128987602,0.0,0.0,0.0,0,0,0.0
0,1.9238282827911866,-1.3489296533833157,0,0.0,0.0,-0.4263621151535066,0.9045525671633617,0.0,0.0,0.0,0,0,0.0
0,1.9389817605034838,-1.3672951895746746,0,0.0,0.0,-0.43813555194012743,0.898908915366913,0.0,0.0,0.0,0,0,0.0
0,1.9502423204989112,-1.3816924861396431,0,0.0,0.0,-0.44611454696966546,0.8949758717317747,0.0,0.0,0.0,0,0,0.0
0,1.9690633085898153,-1.4066591135984592,0,0.0,0.0,-0.460648907082005,0.8875824380890793,0.0,0.0,0.0,0,0,0.0
0,1.9946254090205198,-1.442973657423654,0,0.0,0.0,-0.48045838142238256,0.8770175276019199,0.0,0.0,0.0,0,0,0.0
0,2.0110364335984205,-1.4686651677989042,0,0.0,0.0,-0.49390248027406725,0.8695173028635627,0.0,0.0,0.0,0,0,0.0
0,2.032335030552688,-1.5043865383245998,0,0.0,0.0,-0.5129998116183003,0.8583887192173417,0.0,0.0,0.0,0,0,0.0
0,2.0536739127540393,-1.5440630945474665,0,0.0,0.0,-0.5316111757658971,0.8469885228270808,0.0,0.0,0.0,0,0,0.0
0,2.07098839344627,-1.5799257479558557,0,0.0,0.0,-0.5486776574945594,0.8360339874468519,0.0,0.0,0.0,0,0,0.0
0,2.0726608905608903,-1.5837819205975334,0,0.0,0.0,-0.5438329367509577,0.83919350385047,0.0,0.0,0.0,0,0,0.0
0,2.0814435343248943,-1.6034064787351865,0,0.0,0.0,-0.5397694132876769,0.8418129129914064,0.0,0.0,0.0,0,0,0.0
0,2.0950603723683305,-1.6330605180838988,0,0.0,0.0,-0.5415731042534673,0.8406536580240778,0.0,0.0,0.0,0,0,0.0
0,2.1134086874886213,-1.6734746177059105,0,0.0,0.0,-0.5522133816490197,0.8337028134339922,0.0,0.0,0.0,0,0,0.0
0,2.131134912857328,-1.7153120855696988,0,0.0,0.0,-0.5624937992590704,0.8268015032612704,0.0,0.0,0.0,0,0,0.0
0,2.143141109821638,-1.7457244416652207,0,0.0,0.0,-0.5707870074413249,0.8210981623022773,0.0,0.0,0.0,0,0,0.0
0,2.157145678010689,-1.7834022181777986,0,0.0,0.0,-0.5764182097991182,0.8171548491026531,0.0,0.0,0.0,0,0,0.0
0,2.172359632058908,-1.826123297377021,0,0.0,0.0,-0.5807479987887245,0.8140833875610604,0.0,0.0,0.0,0,0,0.0
0,2.1813478330010745,-1.852236314941541,0,0.0,0.0,-0.5830166146298028,0.8124602310670991,0.0,0.0,0.0,0,0,0.0
0,2.195971828199218,-1.895505673846533,0,0.0,0.0,-0.5817687223755034,0.8133542608639698,0.0,0.0,0.0,0,0,0.0
0,2.210859597838838,-1.9391136389217085,0,0.0,0.0,-0.5793334149519881,0.8150906663188259,0.0,0.0,0.0,0,0,0.0
0,2.2042846860660354,-1.9202252685531493,0,0.0,0.0,-0.5701742914492455,0.8215237533816967,0.0,0.0,0.0,0,0,0.0
0,2.1985528174260494,-1.9048744688807548,0,0.0,0.0,-0.5629336275911296,0.8265021058213291,0.0,0.0,0.0,0,0,0.0
0,2.1951034971693373,-1.8961098560018228,0,0.0,0.0,-0.5634776668589356,0.8261312964361115,0.0,0.0,0.0,0,0,0.0
0,2.1929089912601016,-1.890512067064746,0,0.0,0.0,-0.551231016634826,0.8343526630266941,0.0,0.0,0.0,0,0,0.0
0,2.199745243615056,-1.9065417728087606,0,0.0,0.0,-0.5414832470755881,0.8407115397902407,0.0,0.0,0.0,0,0,0.0
0,2.20970445136295,-1.9284655265592185,0,0.0,0.0,-0.5415441718535094,0.8406722963982437,0.0,0.0,0.0,0,0,0.0
0,2.219732483246607,-1.9505492862606935,0,0.0,0.0,-0.5418299529360994,0.8404881332304843,0.0,0.0,0.0,0,0,0.0
0,2.2353312051758008,-1.9849629731152156,0,0.0,0.0,-0.5384600735910778,0.8426510245340542,0.0,0.0,0.0,0,0,0.0
0,2.245257400223419,-2.006403682689887,0,0.0,0.0,-0.5362800063699081,0.8440401381260795,0.0,0.0,0.0,0,0,0.0
0,2.2608484166444844,-2.039628832283258,0,0.0,0.0,-0.5304396482618003,0.8477227020387608,0.0,0.0,0.0,0,0,0.0
0,2.2756112459964584,-2.06999165397976,0,0.0,0.0,-0.5240246815702138,0.8517030780179417,0.0,0.0,0.0,0,0,0.0
0,2.2878039802435435,-2.094134627214513,0,0.0,0.0,-0.5182713496748278,0.8552162347068912,0.0,0.0,0.0,0,0,0.0
0,2.3035745420011216,-2.1243429554233457,0,0.0,0.0,-0.5105434606493694,0.85985194934254,0.0,0.0,0.0,0,0,0.0
0,2.318632511688833,-2.1519613084864395,0,0.0,0.0,-0.5028639024312453,0.8643656029896255,0.0,0.0,0.0,0,0,0.0
0,2.33481142632398,-2.1804174197239803,0,0.0,0.0,-0.4943317239380674,0.8692733440687217,0.0,0.0,0.0,0,0,0.0
0,2.3578619686692566,-2.219164031402775,0,0.0,0.0,-0.4820863718911813,0.8761236956256792,0.0,0.0,0.0,0,0,0.0
0,2.3676987697509975,-2.2346903988474405,0,0.0,0.0,-0.47681303653270446,0.8790047372980773,0.0,0.0,0.0,0,0,0.0
0,2.3776604561988286,-2.2500036629427638,0,0.0,0.0,-0.4838637433720408,0.8751433470295,0.0,0.0,0.0,0,0,0.0
0,2.3776604561988286,-2.2500036629427638,0,0.0,0.0,-0.4838637433720409,0.8751433470294999,0.0,0.0,0.0,0,0,0.0
0,2.3776604561988286,-2.2500036629427638,0,0.0,0.0,-0.4838637433720409,0.8751433470294999,0.0,0.0,0.0,0,0,0.0
0,2.3776604561988286,-2.2500036629427638,0,0.0,0.0,-0.4838637433720409,0.8751433470294999,0.0,0.0,0.0,0,0,0.0
0,2.3776604561988286,-2.2500036629427638,0,0.0,0.0,-0.4838637433720409,0.8751433470294999,0.0,0.0,0.0,0,0,0.0
0,2.3776604561988286,-2.2500036629427638,0,0.0,0.0,-0.4838637433720409,0.8751433470294999,0.0,0.0,0.0,0,0,0.0
0,2.3776604561988286,-2.2500036629427638,0,0.0,0.0,-0.4838637433720409,0.8751433470294999,0.0,0.0,0.0,0,0,0.0
0,2.3776604561988286,-2.2500036629427638,0,0.0,0.0,-0.4838637433720409,0.8751433470294999,0.0,0.0,0.0,0,0,0.0
0,2.3776604561988286,-2.2500036629427638,0,0.0,0.0,-0.4838637433720409,0.8751433470294999,0.0,0.0,0.0,0,0,0.0
0,2.3776604561988286,-2.2500036629427638,0,0.0,0.0,-0.4838637433720409,0.8751433470294999,0.0,0.0,0.0,0,0,0.0
0,2.3776604561988286,-2.2500036629427638,0,0.0,0.0,-0.4838637433720409,0.8751433470294999,0.0,0.0,0.0,0,0,0.0
0,2.3776604561988286,-2.2500036629427638,0,0.0,0.0,-0.4838637433720409,0.8751433470294999,0.0,0.0,0.0,0,0,0.0
0,2.3776604561988286,-2.2500036629427638,0,0.0,0.0,-0.4838637433720409,0.8751433470294999,0.0,0.0,0.0,0,0,0.0
0,2.3776604561988286,-2.2500036629427638,0,0.0,0.0,-0.4838637433720409,0.8751433470294999,0.0,0.0,0.0,0,0,0.0
0,2.3776604561988286,-2.2500036629427638,0,0.0,0.0,-0.4838637433720409,0.8751433470294999,0.0,0.0,0.0,0,0,0.0
0,2.3776604561988286,-2.2500036629427638,0,0.0,0.0,-0.4838637433720409,0.8751433470294999,0.0,0.0,0.0,0,0,0.0
0,2.3776604561988286,-2.2500036629427638,0,0.0,0.0,-0.4838637433720409,0.8751433470294999,0.0,0.0,0.0,0,0,0.0
0,2.3776604561988286,-2.2500036629427638,0,0.0,0.0,-0.4838637433720409,0.8751433470294999,0.0,0.0,0.0,0,0,0.0
0,2.3848920718009987,-2.2615211749267,0,0.0,0.0,-0.4728085729890928,0.8811651680065535,0.0,0.0,0.0,0,0,0.0
0,2.3848920718009987,-2.2615211749267,0,0.0,0.0,-0.47280857298909285,0.8811651680065535,0.0,0.0,0.0,0,0,0.0
0,2.3848920718009987,-2.2615211749267,0,0.0,0.0,-0.47280857298909296,0.8811651680065534,0.0,0.0,0.0,0,0,0.0
0,2.3848920718009987,-2.2615211749267,0,0.0,0.0,-0.472808572989093,0.8811651680065534,0.0,0.0,0.0,0,0,0.0
0,2.3848920718009987,-2.2615211749267,0,0.0,0.0,-0.47280857298909307,0.8811651680065534,0.0,0.0,0.0,0,0,0.0
0,2.3848920718009987,-2.2615211749267,0,0.0,0.0,-0.47280857298909307,0.8811651680065534,0.0,0.0,0.0,0,0,0.0
0,2.373833989668678,-2.244856277100585,0,0.0,0.0,-0.46750275918547346,0.8839916120382417,0.0,0.0,0.0,0,0,0.0
0,2.3658915398347515,-2.233193575200313,0,0.0,0.0,-0.4571295015718217,0.8894001454872255,0.0,0.0,0.0,0,0,0.0
0,2.3751042615383686,-2.246063699201381,0,0.0,0.0,-0.4381710938479422,0.8988915910809812,0.0,0.0,0.0,0,0,0.0
0,2.3751042615383686,-2.246063699201381,0,0.0,0.0,-0.43817109384794223,0.8988915910809812,0.0,0.0,0.0,0,0,0.0
0,2.3751042615383686,-2.246063699201381,0,0.0,0.0,-0.4381710938479423,0.8988915910809812,0.0,0.0,0.0,0,0,0.0
0,2.3751042615383686,-2.246063699201381,0,0.0,0.0,-0.43817109384794223,0.8988915910809812,0.0,0.0,0.0,0,0,0.0
0,2.384387898536131,-2.257935316418464,0,0.0,0.0,-0.4291807712210089,0.9032186145192868,0.0,0.0,0.0,0,0,0.0
0,2.405905214007661,-2.28434746798299,0,0.0,0.0,-0.4096516527796416,0.9122420311380681,0.0,0.0,0.0,0,0,0.0
0,2.433201654257528,-2.3150553668572234,0,0.0,0.0,-0.3867199680831168,0.9221971949023664,0.0,0.0,0.0,0,0,0.0
0,2.462204739416601,-2.344570273889936,0,0.0,0.0,-0.36497535635538575,0.9310171798915738,0.0,0.0,0.0,0,0,0.0
0,2.4782303291881482,-2.3594164371296125,0,0.0,0.0,-0.35450878547846487,0.9350526835524209,0.0,0.0,0.0,0,0,0.0
0,2.5078114438078605,-2.385612166813349,0,0.0,0.0,-0.3353054491315007,0.9421094712307708,0.0,0.0,0.0,0,0,0.0
0,2.5411154161624556,-2.4127570251175654,0,0.0,0.0,-0.3147794493800332,0.9491648425052431,0.0,0.0,0.0,0,0,0.0
0,2.5411154161624556,-2.4127570251175654,0,0.0,0.0,-0.3147794493800332,0.9491648425052431,0.0,0.0,0.0,0,0,0.0
0,2.5411154161624556,-2.4127570251175654,0,0.0,0.0,-0.3147794493800332,0.9491648425052431,0.0,0.0,0.0,0,0,0.0
0,2.5411154161624556,-2.4127570251175654,0,0.0,0.0,-0.3147794493800332,0.9491648425052431,0.0,0.0,0.0,0,0,0.0
0,2.5531313220088667,-2.4217117741647467,0,0.0,0.0,-0.3008343069504182,0.9536764229872005,0.0,0.0,0.0,0,0,0.0
0,2.566175357493993,-2.4308505459184664,0,0.0,0.0,-0.28826267197267263,0.9575513730067831,0.0,0.0,0.0,0,0,0.0
0,2.5866862241957533,-2.4444304837919644,0,0.0,0.0,-0.2735570929058971,0.961855767212982,0.0,0.0,0.0,0,0,0.0
0,2.595934560824465,-2.4501539945975566,0,0.0,0.0,-0.2681378536823164,0.9633805537909932,0.0,0.0,0.0,0,0,0.0
0,2.607695897846288,-2.4572508400833817,0,0.0,0.0,-0.2607046413026324,0.9654186086891353,0.0,0.0,0.0,0,0,0.0
0,2.621285745451819,-2.465167864858459,0,0.0,0.0,-0.25387143465209855,0.9672379720977073,0.0,0.0,0.0,0,0,0.0
0,2.6346893625109735,-2.4727245594777916,0,0.0,0.0,-0.2474217640859339,0.9689078752165267,0.0,0.0,0.0,0,0,0.0
0,2.6346893625109735,-2.4727245594777916,0,0.0,0.0,-0.2474217640859339,0.9689078752165267,0.0,0.0,0.0,0,0,0.0
0,2.6346893625109735,-2.4727245594777916,0,0.0,0.0,-0.2474217640859339,0.9689078752165267,0.0,0.0,0.0,0,0,0.0
0,2.6346893625109735,-2.4727245594777916,0,0.0,0.0,-0.2474217640859339,0.9689078752165267,0.0,0.0,0.0,0,0,0.0
0,2.6346893625109735,-2.4727245594777916,0,0.0,0.0,-0.2474217640859339,0.9689078752165267,0.0,0.0,0.0,0,0,0.0
0,2.6346893625109735,-2.4727245594777916,0,0.0,0.0,-0.2474217640859339,0.9689078752165267,0.0,0.0,0.0,0,0,0.0
0,2.6346893625109735,-2.4727245594777916,0,0.0,0.0,-0.2474217640859339,0.9689078752165267,0.0,0.0,0.0,0,0,0.0
0,2.6346893625109735,-2.4727245594777916,0,0.0,0.0,-0.2474217640859339,0.9689078752165267,0.0,0.0,0.0,0,0,0.0
0,2.6346893625109735,-2.4727245594777916,0,0.0,0.0,-0.2474217640859339,0.9689078752165267,0.0,0.0,0.0,0,0,0.0
0,2.6346893625109735,-2.4727245594777916,0,0.0,0.0,-0.2474217640859339,0.9689078752165267,0.0,0.0,0.0,0,0,0.0
0,2.6346893625109735,-2.4727245594777916,0,0.0,0.0,-0.2474217640859339,0.9689078752165267,0.0,0.0,0.0,0,0,0.0
0,2.6346893625109735,-2.4727245594777916,0,0.0,0.0,-0.2474217640859339,0.9689078752165267,0.0,0.0,0.0,0,0,0.0
0,2.6346893625109735,-2.4727245594777916,0,0.0,0.0,-0.2474217640859339,0.9689078752165267,0.0,0.0,0.0,0,0,0.0
0,2.6346893625109735,-2.4727245594777916,0,0.0,0.0,-0.2474217640859339,0.9689078752165267,0.0,0.0,0.0,0,0,0.0
0,2.6346893625109735,-2.4727245594777916,0,0.0,0.0,-0.2474217640859339,0.9689078752165267,0.0,0.0,0.0,0,0,0.0
0,2.6346893625109735,-2.4727245594777916,0,0.0,0.0,-0.2474217640859339,0.9689078752165267,0.0,0.0,0.0,0,0,0.0
0,2.6346893625109735,-2.4727245594777916,0,0.0,0.0,-0.2474217640859339,0.9689078752165267,0.0,0.0,0.0,0,0,0.0
0,2.6346893625109735,-2.4727245594777916,0,0.0,0.0,-0.2474217640859339,0.9689078752165267,0.0,0.0,0.0,0,0,0.0
0,2.6346893625109735,-2.4727245594777916,0,0.0,0.0,-0.2474217640859339,0.9689078752165267,0.0,0.0,0.0,0,0,0.0
0,2.6346893625109735,-2.4727245594777916,0,0.0,0.0,-0.2474217640859339,0.9689078752165267,0.0,0.0,0.0,0,0,0.0
0,2.6346893625109735,-2.4727245594777916,0,0.0,0.0,-0.2474217640859339,0.9689078752165267,0.0,0.0,0.0,0,0,0.0
0,2.6346893625109735,-2.4727245594777916,0,0.0,0.0,-0.2474217640859339,0.9689078752165267,0.0,0.0,0.0,0,0,0.0
0,2.6346893625109735,-2.4727245594777916,0,0.0,0.0,-0.2474217640859339,0.9689078752165267,0.0,0.0,0.0,0,0,0.0
0,2.6346893625109735,-2.4727245594777916,0,0.0,0.0,-0.2474217640859339,0.9689078752165267,0.0,0.0,0.0,0,0,0.0
0,2.6346893625109735,-2.4727245594777916,0,0.0,0.0,-0.2474217640859339,0.9689078752165267,0.0,0.0,0.0,0,0,0.0
0,2.6346893625109735,-2.4727245594777916,0,0.0,0.0,-0.2474217640859339,0.9689078752165267,0.0,0.0,0.0,0,0,0.0
0,2.6346893625109735,-2.4727245594777916,0,0.0,0.0,-0.2474217640859339,0.9689078752165267,0.0,0.0,0.0,0,0,0.0
0,2.6346893625109735,-2.4727245594777916,0,0.0,0.0,-0.2474217640859339,0.9689078752165267,0.0,0.0,0.0,0,0,0.0
0,2.6346893625109735,-2.4727245594777916,0,0.0,0.0,-0.2474217640859339,0.9689078752165267,0.0,0.0,0.0,0,0,0.0
0,2.6346893625109735,-2.4727245594777916,0,0.0,0.0,-0.2474217640859339,0.9689078752165267,0.0,0.0,0.0,0,0,0.0
0,2.6346893625109735,-2.4727245594777916,0,0.0,0.0,-0.2474217640859339,0.9689078752165267,0.0,0.0,0.0,0,0,0.0
0,2.6346893625109735,-2.4727245594777916,0,0.0,0.0,-0.2474217640859339,0.9689078752165267,0.0,0.0,0.0,0,0,0.0
0,2.6346893625109735,-2.4727245594777916,0,0.0,0.0,-0.2474217640859339,0.9689078752165267,0.0,0.0,0.0,0,0,0.0
0,2.6346893625109735,-2.4727245594777916,0,0.0,0.0,-0.2474217640859339,0.9689078752165267,0.0,0.0,0.0,0,0,0.0
0,2.6346893625109735,-2.4727245594777916,0,0.0,0.0,-0.2474217640859339,0.9689078752165267,0.0,0.0,0.0,0,0,0.0
0,2.6346893625109735,-2.4727245594777916,0,0.0,0.0,-0.2474217640859339,0.9689078752165267,0.0,0.0,0.0,0,0,0.0
0,2.6346893625109735,-2.4727245594777916,0,0.0,0.0,-0.2474217640859339,0.9689078752165267,0.0,0.0,0.0,0,0,0.0
0,2.6346893625109735,-2.4727245594777916,0,0.0,0.0,-0.2474217640859339,0.9689078752165267,0.0,0.0,0.0,0,0,0.0
0,2.6346893625109735,-2.4727245594777916,0,0.0,0.0,-0.2474217640859339,0.9689078752165267,0.0,0.0,0.0,0,0,0.0
0,2.6346893625109735,-2.4727245594777916,0,0.0,0.0,-0.2474217640859339,0.9689078752165267,0.0,0.0,0.0,0,0,0.0
0,2.6346893625109735,-2.4727245594777916,0,0.0,0.0,-0.2474217640859339,0.9689078752165267,0.0,0.0,0.0,0,0,0.0
0,2.6346893625109735,-2.4727245594777916,0,0.0,0.0,-0.2474217640859339,0.9689078752165267,0.0,0.0,0.0,0,0,0.0
0,2.6346893625109735,-2.4727245594777916,0,0.0,0.0,-0.2474217640859339,0.9689078752165267,0.0,0.0,0.0,0,0,0.0
0,2.6346893625109735,-2.4727245594777916,0,0.0,0.0,-0.2474217640859339,0.9689078752165267,0.0,0.0,0.0,0,0,0.0
0,2.6346893625109735,-2.4727245594777916,0,0.0,0.0,-0.2474217640859339,0.9689078752165267,0.0,0.0,0.0,0,0,0.0
0,2.6346893625109735,-2.4727245594777916,0,0.0,0.0,-0.2474217640859339,0.9689078752165267,0.0,0.0,0.0,0,0,0.0
0,2.6346893625109735,-2.4727245594777916,0,0.0,0.0,-0.2474217640859339,0.9689078752165267,0.0,0.0,0.0,0,0,0.0
0,2.6346893625109735,-2.4727245594777916,0,0.0,0.0,-0.2474217640859339,0.9689078752165267,0.0,0.0,0.0,0,0,0.0
0,2.6346893625109735,-2.4727245594777916,0,0.0,0.0,-0.2474217640859339,0.9689078752165267,0.0,0.0,0.0,0,0,0.0
0,2.6346893625109735,-2.4727245594777916,0,0.0,0.0,-0.2474217640859339,0.9689078752165267,0.0,0.0,0.0,0,0,0.0
0,2.6346893625109735,-2.4727245594777916,0,0.0,0.0,-0.2474217640859339,0.9689078752165267,0.0,0.0,0.0,0,0,0.0
0,2.6346893625109735,-2.4727245594777916,0,0.0,0.0,-0.2474217640859339,0.9689078752165267,0.0,0.0,0.0,0,0,0.0
0,2.6346893625109735,-2.4727245594777916,0,0.0,0.0,-0.2474217640859339,0.9689078752165267,0.0,0.0,0.0,0,0,0.0
0,2.6346893625109735,-2.4727245594777916,0,0.0,0.0,-0.2474217640859339,0.9689078752165267,0.0,0.0,0.0,0,0,0.0
0,2.6346893625109735,-2.4727245594777916,0,0.0,0.0,-0.2474217640859339,0.9689078752165267,0.0,0.0,0.0,0,0,0.0
0,2.6346893625109735,-2.4727245594777916,0,0.0,0.0,-0.2474217640859339,0.9689078752165267,0.0,0.0,0.0,0,0,0.0
0,2.6346893625109735,-2.4727245594777916,0,0.0,0.0,-0.2474217640859339,0.9689078752165267,0.0,0.0,0.0,0,0,0.0
0,2.6346893625109735,-2.4727245594777916,0,0.0,0.0,-0.2474217640859339,0.9689078752165267,0.0,0.0,0.0,0,0,0.0
0,2.6346893625109735,-2.4727245594777916,0,0.0,0.0,-0.2474217640859339,0.9689078752165267,0.0,0.0,0.0,0,0,0.0
0,2.6346893625109735,-2.4727245594777916,0,0.0,0.0,-0.2474217640859339,0.9689078752165267,0.0,0.0,0.0,0,0,0.0
0,2.6346893625109735,-2.4727245594777916,0,0.0,0.0,-0.2474217640859339,0.9689078752165267,0.0,0.0,0.0,0,0,0.0
0,2.6346893625109735,-2.4727245594777916,0,0.0,0.0,-0.2474217640859339,0.9689078752165267,0.0,0.0,0.0,0,0,0.0
0,2.6346893625109735,-2.4727245594777916,0,0.0,0.0,-0.2474217640859339,0.9689078752165267,0.0,0.0,0.0,0,0,0.0
0,2.6346893625109735,-2.4727245594777916,0,0.0,0.0,-0.2474217640859339,0.9689078752165267,0.0,0.0,0.0,0,0,0.0
0,2.6346893625109735,-2.4727245594777916,0,0.0,0.0,-0.2474217640859339,0.9689078752165267,0.0,0.0,0.0,0,0,0.0
0,2.6346893625109735,-2.4727245594777916,0,0.0,0.0,-0.2474217640859339,0.9689078752165267,0.0,0.0,0.0,0,0,0.0
0,2.6346893625109735,-2.4727245594777916,0,0.0,0.0,-0.2474217640859339,0.9689078752165267,0.0,0.0,0.0,0,0,0.0
0,2.6346893625109735,-2.4727245594777916,0,0.0,0.0,-0.2474217640859339,0.9689078752165267,0.0,0.0,0.0,0,0,0.0
0,2.6346893625109735,-2.4727245594777916,0,0.0,0.0,-0.2474217640859339,0.9689078752165267,0.0,0.0,0.0,0,0,0.0
0,2.6346893625109735,-2.4727245594777916,0,0.0,0.0,-0.2474217640859339,0.9689078752165267,0.0,0.0,0.0,0,0,0.0
0,2.6346893625109735,-2.4727245594777916,0,0.0,0.0,-0.2474217640859339,0.9689078752165267,0.0,0.0,0.0,0,0,0.0
0,2.6346893625109735,-2.4727245594777916,0,0.0,0.0,-0.2474217640859339,0.9689078752165267,0.0,0.0,0.0,0,0,0.0
0,2.6346893625109735,-2.4727245594777916,0,0.0,0.0,-0.2474217640859339,0.9689078752165267,0.0,0.0,0.0,0,0,0.0
0,2.6346893625109735,-2.4727245594777916,0,0.0,0.0,-0.2474217640859339,0.9689078752165267,0.0,0.0,0.0,0,0,0.0
0,2.6346893625109735,-2.4727245594777916,0,0.0,0.0,-0.2474217640859339,0.9689078752165267,0.0,0.0,0.0,0,0,0.0
0,2.6346893625109735,-2.4727245594777916,0,0.0,0.0,-0.2474217640859339,0.9689078752165267,0.0,0.0,0.0,0,0,0.0
0,2.6346893625109735,-2.4727245594777916,0,0.0,0.0,-0.2474217640859339,0.9689078752165267,0.0,0.0,0.0,0,0,0.0
